,City Name,Cloud,Country,Date,Humidity,Latitude,Longitude,Maximum Temperature,Wind Speed
0,Khatanga,48,RU,1531977064,78,71.98,102.47,42.33,17.38
1,Tuktoyaktuk,75,CA,1531972800,48,69.44,-133.03,64.4,12.75
2,Victoria,75,BN,1531974600,75,5.28,115.24,91.4,3.36
3,Bodden Town,0,KY,1531976784,99,19.28,-81.25,84.09,8.43
4,Cermik,0,TR,1531975800,36,38.14,39.45,77.0,3.36
5,Naze,80,NG,1531977080,97,5.43,7.07,69.51,3.29
6,Alofi,92,NU,1531972800,88,-19.06,-169.92,78.8,4.7
7,Thompson,75,CA,1531972800,68,55.74,-97.86,64.4,4.7
8,Carazinho,0,BR,1531977085,69,-28.3,-52.79,60.42,10.0
9,Cumberland,1,US,1531976160,72,41.97,-71.43,64.4,4.7
10,Hilo,90,US,1531973940,83,19.71,-155.08,78.8,18.72
11,Saint-Philippe,1,CA,1531976100,100,45.36,-73.48,64.4,2.51
12,Saint-Ambroise,0,FR,1531976400,93,47.25,-0.65,59.0,2.95
13,Longyearbyen,75,NO,1531975800,93,78.22,15.63,44.6,5.82
14,Vanavara,24,RU,1531977095,54,60.35,102.28,69.42,3.74
15,Bluff,0,AU,1531976973,40,-23.58,149.07,74.01,11.45
16,Paracuru,75,BR,1531972800,78,-3.41,-39.03,80.6,11.41
17,Rio Grande,0,BR,1531976841,84,-32.03,-52.1,60.69,8.43
18,Wyndham,20,GB,1531975800,82,51.61,-3.54,57.2,3.36
19,Vaini,100,IN,1531977102,99,15.34,74.49,71.49,9.44
20,Bredasdorp,92,ZA,1531972800,51,-34.53,20.04,59.0,2.24
21,Prince Rupert,75,CA,1531972800,87,54.32,-130.32,55.4,5.82
22,Salalah,90,OM,1531972200,100,17.01,54.1,75.2,4.7
23,Sayyan,32,YE,1531977108,50,15.17,44.32,70.86,3.62
24,Chokurdakh,44,RU,1531976978,59,70.62,147.9,53.31,19.06
25,Nemuro,75,JP,1531972800,77,43.32,145.57,69.8,11.41
26,Butaritari,100,KI,1531977114,100,3.07,172.79,84.54,10.22
27,Carnarvon,0,ZA,1531977115,72,-30.97,22.13,36.48,9.55
28,Nantucket,1,US,1531974900,87,41.28,-70.1,62.6,3.36
29,Esperance,20,TT,1531972800,94,10.24,-61.45,77.0,5.75
30,Avarua,75,CK,1531976400,94,-21.21,-159.78,75.2,4.7
31,Orangeburg,75,US,1531976160,88,33.49,-80.86,80.6,3.36
32,Arona,0,IT,1531975800,72,45.76,8.56,69.8,6.93
33,Pucallpa,40,PE,1531972800,94,-8.38,-74.54,77.0,2.06
34,Honningsvag,0,NO,1531974000,64,70.98,25.97,68.0,12.75
35,Rikitea,0,PF,1531976965,100,-23.12,-134.97,72.39,25.77
36,Tasiilaq,48,GL,1531975800,80,65.61,-37.64,39.2,3.36
37,Sidi Ali,20,DZ,1531977128,91,36.1,0.42,66.63,2.84
38,Kapaa,75,US,1531972560,88,22.08,-159.32,84.2,16.11
39,Mutoko,0,ZW,1531977131,72,-17.4,32.23,52.86,4.18
40,Ushuaia,0,AR,1531972800,80,-54.81,-68.31,30.2,2.84
41,Kruisfontein,0,ZA,1531977135,59,-34.0,24.73,65.1,11.01
42,Mataura,0,NZ,1531977136,95,-46.19,168.86,43.23,3.62
43,Hithadhoo,80,MV,1531977138,100,-0.6,73.08,80.22,4.74
44,Mahebourg,40,MU,1531972800,60,-20.41,57.7,71.6,19.46
45,Iqaluit,90,CA,1531972800,81,63.75,-68.52,44.6,2.24
46,Puerto Ayora,76,EC,1531977142,100,-0.74,-90.35,70.95,15.7
47,Punta Arenas,0,CL,1531972800,92,-53.16,-70.91,19.4,4.7
48,Svetlaya,92,RU,1531977145,95,46.54,138.33,58.71,9.1
49,Walvis Bay,0,NA,1531977146,73,-22.95,14.51,68.43,21.07
50,Tautira,20,PF,1531976400,78,-17.73,-149.15,77.0,2.24
51,Cidreira,0,BR,1531977152,79,-30.17,-50.22,62.13,7.09
52,Cadillac,1,US,1531975620,100,44.25,-85.4,57.2,2.39
53,Lagoa,0,PT,1531976400,64,37.14,-8.45,68.0,6.93
54,Ishigaki,75,JP,1531972800,84,24.34,124.16,86.0,17.22
55,Cockburn Town,88,TC,1531976989,100,21.46,-71.14,80.4,19.39
56,Crotone,0,IT,1531977205,96,39.09,17.12,78.33,6.64
57,Caraballeda,76,VE,1531977207,100,10.61,-66.85,74.46,5.19
58,Kirkwall,48,GB,1531975800,87,58.98,-2.96,57.2,6.93
59,Kailua,90,US,1531975320,83,21.39,-157.74,82.4,14.99
60,Wembley,56,GB,1531975800,87,51.55,-0.3,59.0,1.12
61,Torbay,90,CA,1531976400,100,47.66,-52.73,68.0,21.92
62,Isangel,0,VU,1531977011,100,-19.55,169.27,70.95,15.82
63,Itoman,20,JP,1531976160,66,26.12,127.67,87.8,16.11
64,Buchanan,75,LR,1531976400,94,5.88,-10.05,75.2,3.96
65,Lucapa,0,AO,1531977157,55,-8.42,20.74,58.98,8.43
66,Cape Town,20,ZA,1531973160,37,-33.93,18.42,68.0,16.11
67,Wer,20,IN,1531977226,80,27.0,77.17,91.2,12.46
68,Mount Isa,0,AU,1531976400,14,-20.73,139.49,84.2,9.17
69,Port Alfred,0,ZA,1531977229,86,-33.59,26.89,61.5,8.43
70,Ponta do Sol,0,BR,1531977230,86,-20.63,-46.0,49.62,3.29
71,Springbok,8,ZA,1531977231,38,-29.67,17.88,52.77,12.24
72,East London,0,ZA,1531972800,47,-33.02,27.91,57.2,8.05
73,Arrifes,40,PT,1531976400,93,37.77,-25.7,66.2,3.36
74,Lebu,24,ET,1531977059,81,8.96,38.73,60.96,3.85
75,Komsomolskiy,76,RU,1531976997,60,67.55,63.78,58.26,4.74
76,Yellowknife,75,CA,1531972800,55,62.45,-114.38,64.4,8.05
77,Havelock,1,US,1531976040,94,34.88,-76.9,78.8,3.36
78,Hermanus,64,ZA,1531977242,62,-34.42,19.24,55.74,6.31
79,Nikolskoye,0,RU,1531974600,60,59.7,30.79,71.6,13.42
80,Kaitangata,64,NZ,1531977053,86,-46.28,169.85,44.76,2.95
81,Mehamn,0,NO,1531975800,37,71.03,27.85,82.4,12.75
82,Kavieng,100,PG,1531977044,100,-2.57,150.8,79.59,7.43
83,Shaoguan,24,CN,1531977270,75,24.81,113.59,87.06,3.18
84,Escanaba,1,US,1531972560,82,45.75,-87.06,62.6,12.01
85,Bambous Virieux,40,MU,1531972800,60,-20.34,57.76,71.6,19.46
86,Tullow,20,IE,1531972800,93,52.8,-6.74,46.4,2.24
87,Klaksvik,68,FO,1531975800,100,62.23,-6.59,50.0,11.41
88,Nuuk,92,GL,1531975800,87,64.17,-51.74,51.8,3.18
89,Faanui,88,PF,1531977281,100,-16.48,-151.75,79.32,22.53
90,Castro,0,CL,1531977283,100,-42.48,-73.76,25.59,2.28
91,Abeche,88,TD,1531977285,96,13.83,20.83,71.13,5.97
92,Kroya,0,ID,1531977286,48,-6.5,108.06,90.57,5.97
93,Kavaratti,80,IN,1531977288,98,10.57,72.64,82.29,24.54
94,Albany,1,US,1531976040,67,42.65,-73.75,62.6,5.82
95,Kodiak,75,US,1531972380,78,39.95,-94.76,78.8,5.82
96,Atuona,80,PF,1531977293,100,-9.8,-139.03,79.59,20.51
97,Mazatlan,75,MX,1531971780,74,23.22,-106.42,86.0,4.7
98,Zilupe,92,RU,1531977297,100,56.39,28.12,64.29,15.82
99,Wencheng,76,CN,1531977299,83,27.79,120.09,79.32,2.73
100,Puerto Rico,0,PY,1531977300,47,-26.82,-55.03,72.66,5.64
101,Khani,0,GE,1531974600,73,41.96,42.96,75.2,5.82
102,La Ronge,75,CA,1531972800,77,55.1,-105.3,62.6,2.06
103,Siniscola,0,IT,1531975800,73,40.57,9.69,71.6,2.24
104,Bethel,90,US,1531975980,76,60.79,-161.76,57.2,6.93
105,Clyde River,40,CA,1531976400,93,70.47,-68.59,39.2,3.36
106,Provideniya,90,RU,1531974600,100,64.42,-173.23,46.4,8.95
107,Aitape,92,PG,1531977311,91,-3.15,142.36,82.83,4.63
108,Airai,80,TL,1531977313,73,-8.93,125.41,76.44,2.28
109,Jamestown,80,AU,1531977314,57,-33.21,138.6,57.36,14.81
110,Henties Bay,0,NA,1531977316,56,-22.12,14.28,68.52,22.19
111,Ushtobe,0,KZ,1531977317,28,45.25,77.98,82.02,18.61
112,Narsaq,92,GL,1531975800,87,60.91,-46.05,50.0,4.7
113,Sydney,0,AU,1531976400,26,-33.85,151.22,71.6,6.93
114,Norman Wells,20,CA,1531976400,72,65.28,-126.83,60.8,4.7
115,Thinadhoo,44,MV,1531977237,100,0.53,72.93,79.86,6.87
116,Lata,88,IN,1531977324,99,30.78,78.62,66.36,1.83
117,Hit,0,IQ,1531977325,20,33.64,42.83,96.06,15.26
118,Coquimbo,0,CL,1531972800,81,-29.95,-71.34,44.6,4.7
119,Uglich,32,RU,1531977328,75,57.53,38.32,73.2,19.62
120,Lembeni,36,TZ,1531977329,76,-3.78,37.62,64.47,4.18
121,Hopelchen,40,MX,1531971840,83,19.77,-89.85,80.6,5.82
122,Jodhpur,44,IN,1531977332,100,26.3,73.04,85.08,4.63
123,Huarmey,0,PE,1531977336,94,-10.07,-78.15,50.79,1.95
124,Boende,68,CD,1531977337,95,-0.28,20.88,73.38,2.84
125,Dalbandin,0,PK,1531977338,19,28.9,64.41,102.81,4.41
126,Betanzos,75,ES,1531974600,88,43.28,-8.21,66.2,3.36
127,Bara,76,NG,1531977343,95,10.41,10.6,71.85,7.76
128,Kalmunai,20,LK,1531977345,47,7.42,81.82,94.35,6.76
129,Constitucion,0,MX,1531977346,75,23.99,-104.67,58.26,5.97
130,Souillac,0,FR,1531976400,82,45.6,-0.6,64.4,2.24
131,Mikhaylovka,68,RU,1531977349,80,52.96,103.29,72.39,3.4
132,Sao Filipe,80,CV,1531977351,100,14.9,-24.5,73.47,7.54
133,Arraial do Cabo,0,BR,1531977352,93,-22.97,-42.02,70.41,17.94
134,Pombas,0,BR,1531977353,57,-15.9,-54.74,71.13,7.76
135,Gibara,5,CU,1531972200,94,21.11,-76.13,73.4,2.24
136,Barra Bonita,0,BR,1531972800,60,-22.49,-48.56,71.6,5.82
137,Danane,92,CI,1531977359,100,7.26,-8.15,68.07,1.72
138,Lavrentiya,92,RU,1531977360,94,65.58,-170.99,42.87,4.29
139,Pasca,40,CO,1531972800,71,4.31,-74.3,55.4,2.24
140,Mount Gambier,88,AU,1531977364,88,-37.83,140.78,49.35,7.31
141,Talnakh,0,RU,1531977365,56,69.49,88.39,48.18,14.81
142,Sandwick,20,GB,1531972200,100,54.57,-2.89,53.6,5.82
143,Molokovo,76,RU,1531977368,76,58.16,36.77,71.58,15.59
144,Tankhoy,0,RU,1531977369,77,51.55,105.12,65.01,7.09
145,Chase,1,US,1531975620,82,43.89,-85.64,57.2,2.28
146,Kyabram,8,AU,1531977372,74,-36.31,145.05,56.19,11.9
147,Barrow,92,AR,1531977373,97,-38.31,-60.23,49.26,20.51
148,Stykkisholmur,100,IS,1531977375,99,65.08,-22.73,48.99,3.62
149,Tual,36,ID,1531977376,98,-5.67,132.75,79.41,11.79
150,Fairbanks,75,US,1531976280,35,64.84,-147.72,71.6,4.7
151,Ziro,40,IN,1531972800,63,27.54,93.82,95.0,5.82
152,Vostok,92,RU,1531977383,98,46.45,135.83,72.84,4.74
153,Dunedin,0,NZ,1531977386,91,-45.87,170.5,38.73,1.61
154,Mar del Plata,92,AR,1531977387,100,-46.43,-67.52,31.44,7.2
155,Mastung,0,PK,1531977388,33,29.8,66.85,91.65,3.74
156,Nizhniy Kuranakh,0,RU,1531977390,45,58.84,125.49,64.74,5.08
157,Whitehorse,75,CA,1531972800,87,60.72,-135.06,53.6,9.17
158,Sturgeon Bay,1,US,1531976160,82,44.83,-87.38,62.6,6.93
159,Sao Felix do Xingu,8,BR,1531977394,61,-6.64,-51.99,76.8,2.95
160,Jiuquan,44,CN,1531977395,40,39.73,98.49,73.92,11.45
161,Palmer,75,AU,1531976400,81,-34.85,139.16,51.8,3.36
162,Samarai,32,PG,1531977398,96,-10.62,150.67,79.23,14.25
163,Vila Franca do Campo,40,PT,1531976400,93,37.72,-25.43,66.2,3.36
164,Khorixas,32,NA,1531977401,48,-20.37,14.96,55.11,13.24
165,Road Town,40,VG,1531972380,83,18.42,-64.62,80.6,9.17
166,Camacha,75,PT,1531976400,60,33.08,-16.33,68.0,6.93
167,Paraiso,0,MX,1531977406,75,24.01,-104.61,58.26,5.97
168,Severo-Kurilsk,36,RU,1531977408,82,50.68,156.12,57.54,5.08
169,Ilulissat,0,GL,1531975800,93,69.22,-51.1,37.4,4.63
170,Leningradskiy,44,RU,1531977410,95,69.38,178.42,33.69,17.72
171,Port Elizabeth,1,US,1531976160,56,39.31,-74.98,73.4,5.82
172,Poya,0,NC,1531977413,100,-21.35,165.16,70.68,17.49
173,New Norfolk,75,AU,1531976400,57,-42.78,147.06,51.8,12.75
174,Lompoc,90,US,1531976880,100,34.64,-120.46,66.2,4.7
175,Vardo,1,US,1531976100,88,39.62,-77.74,73.4,3.36
176,Busselton,0,AU,1531977360,100,-33.64,115.35,59.61,11.01
177,Tubuala,20,PA,1531972800,94,9.52,-79.03,77.0,6.64
178,Kuloy,0,RU,1531977422,65,61.03,42.49,74.55,17.05
179,Dalkola,0,IN,1531977424,63,25.88,87.84,97.14,10.0
180,La Orilla,32,MX,1531977426,100,18.0,-102.23,79.41,2.39
181,Tiksi,0,RU,1531977427,78,71.64,128.87,56.19,8.88
182,Blind River,1,CA,1531976400,82,46.19,-82.96,62.6,6.93
183,Pacific Grove,90,US,1531976100,93,36.62,-121.92,59.0,3.36
184,Sibolga,36,ID,1531977431,80,1.74,98.78,79.59,2.73
185,Jalu,0,LY,1531977432,55,29.03,21.55,80.31,12.46
186,Saint-Georges,0,CA,1531977434,84,46.12,-70.67,48.36,2.39
187,Namibe,0,AO,1531977435,100,-15.19,12.15,65.19,9.78
188,Sirnak,0,TR,1531977437,24,37.52,42.46,78.69,2.51
189,Lannion,0,FR,1531976400,93,48.73,-3.46,57.2,3.36
190,Palestine,1,US,1531976100,66,31.76,-95.63,84.2,5.82
191,Buin,20,CL,1531976400,86,-33.73,-70.74,39.2,1.95
192,San Patricio,0,PY,1531977444,55,-26.98,-56.83,70.59,5.41
193,Ucluelet,8,CA,1531977447,89,48.94,-125.55,56.64,1.83
194,Rocky Mountain House,56,CA,1531977449,96,52.38,-114.92,55.74,3.06
195,Los Chiles,100,CR,1531977450,100,11.04,-84.71,73.11,2.73
196,Zabid,8,YE,1531977451,46,14.2,44.5,71.85,3.51
197,Ancud,0,CL,1531977453,75,-41.87,-73.83,27.57,3.74
198,Rocha,88,UY,1531977455,97,-34.48,-54.34,63.3,5.19
199,Umm Lajj,0,SA,1531977458,84,25.02,37.27,86.16,4.41
200,Siderno,0,IT,1531975800,78,38.28,16.3,75.2,14.99
201,Imeni Poliny Osipenko,92,RU,1531977461,100,52.42,136.49,69.78,5.41
202,Priargunsk,92,RU,1531977462,92,50.37,119.09,74.46,4.07
203,Sosnovo-Ozerskoye,68,RU,1531977463,95,52.53,111.54,65.19,7.2
204,Beyneu,68,KZ,1531977465,36,45.32,55.19,92.01,10.89
205,Aklavik,75,CA,1531976400,42,68.22,-135.01,64.4,8.05
206,Ostrovnoy,0,RU,1531977468,60,68.05,39.51,79.86,8.43
207,Oranjemund,76,ZA,1531977470,77,-28.55,16.43,64.47,12.68
208,Sangamner,88,IN,1531977471,91,19.57,74.2,77.79,18.39
209,San Francisco del Mar,44,MX,1531977472,89,16.34,-94.51,84.54,20.74
210,Zyryanka,48,RU,1531977475,67,65.73,150.89,48.63,2.95
211,Imbituba,0,BR,1531972800,100,-28.24,-48.67,62.6,8.05
212,Te Anau,56,NZ,1531977478,92,-45.41,167.72,42.15,2.39
213,Luanda,75,AO,1531972800,83,-8.83,13.24,71.6,5.82
214,Saskylakh,64,RU,1531977482,88,71.97,114.09,46.74,13.24
215,Fengcheng,92,CN,1531977483,86,40.45,124.07,78.33,6.2
216,Yangjiang,64,CN,1531977484,100,21.85,111.96,83.73,12.35
217,Quincy,75,US,1531977300,100,30.59,-84.58,78.8,4.41
218,Lamar,1,US,1531975980,51,38.09,-102.62,80.6,11.41
219,Taoudenni,0,ML,1531977489,15,22.68,-3.98,73.11,3.74
220,Jacareacanga,8,BR,1531977490,70,-6.22,-57.76,79.23,2.73
221,Hofn,64,IS,1531977492,100,64.25,-15.21,48.0,2.62
222,Hobart,75,AU,1531976400,57,-42.88,147.33,51.8,12.75
223,Puerto Maldonado,20,PE,1531977494,84,-12.59,-69.19,75.0,3.18
224,Glamoc,0,BA,1531977496,56,44.05,16.85,66.63,3.4
225,Rabaul,80,PG,1531977497,100,-4.2,152.17,80.13,7.43
226,Balakovo,12,RU,1531977499,77,52.02,47.82,78.87,6.2
227,Port Macquarie,0,AU,1531976400,33,-31.43,152.91,71.6,10.29
228,Yenagoa,92,NG,1531977501,97,4.92,6.26,71.85,3.29
229,Paamiut,92,GL,1531977503,84,61.99,-49.67,44.49,21.85
230,Qaanaaq,88,GL,1531977505,85,77.48,-69.36,39.45,5.97
231,Ballina,48,IE,1531977507,97,54.11,-9.15,50.34,3.51
232,Lima,64,PE,1531977429,82,-12.06,-77.04,51.96,1.95
233,Kerema,80,PG,1531977511,90,-7.96,145.78,77.07,2.95
234,Revelstoke,90,CA,1531976400,64,50.99,-118.19,69.8,2.24
235,Gravelbourg,68,CA,1531977514,64,49.88,-106.56,72.39,4.29
236,Tsaratanana,8,MG,1531977515,50,-16.8,47.65,68.61,17.16
237,Atikokan,0,CA,1531977516,82,48.76,-91.62,59.88,5.53
238,Longkou,44,CN,1531977518,73,37.64,120.47,84.99,4.74
239,Sinnamary,92,GF,1531977519,100,5.38,-52.96,79.14,9.66
240,Georgetown,20,GY,1531972800,94,6.8,-58.16,75.2,4.7
241,Olinda,0,EC,1531972800,77,-2.03,-79.75,69.8,9.17
242,Ribeira Grande,68,PT,1531977525,100,38.52,-28.7,70.41,19.06
243,Kahului,40,US,1531972560,74,20.89,-156.47,80.6,23.04
244,Santa Maria,0,BR,1531977530,66,-29.69,-53.81,62.76,11.23
245,Neiafu,75,TO,1531976400,88,-18.65,-173.98,77.0,5.41
246,Alpena,1,US,1531974900,72,45.06,-83.43,66.2,4.7
247,Portland,20,US,1531976160,56,45.52,-122.67,71.6,8.05
248,Atbasar,88,KZ,1531977536,49,51.81,68.36,80.4,8.21
249,Bud,75,NO,1531975800,76,62.91,6.91,57.2,2.24
250,Seoul,20,KR,1531976160,59,37.57,126.98,91.4,8.05
251,Koslan,0,RU,1531977541,62,63.46,48.9,68.43,6.42
252,Filadelfia,0,PY,1531977542,49,-22.35,-60.04,79.68,18.61
253,Teya,75,MX,1531975680,78,21.05,-89.07,80.6,5.82
254,Nanortalik,92,GL,1531977545,94,60.14,-45.24,39.54,13.02
255,Agutaya,48,PH,1531977546,94,11.15,120.94,86.52,20.74
256,Saint Albans,1,US,1531976100,100,44.81,-73.08,57.2,2.39
257,Hervey Bay,0,AU,1531977549,90,-25.3,152.85,67.35,2.84
258,Karlshus,0,NO,1531975800,93,59.35,10.87,64.4,2.24
259,Ngunguru,36,NZ,1531977552,98,-35.62,174.5,59.25,12.91
260,College,75,US,1531976280,35,64.86,-147.8,71.6,4.7
261,Karratha,0,AU,1531977556,14,-20.74,116.85,88.41,12.68
262,Sisimiut,0,GL,1531977557,97,66.94,-53.67,43.86,4.07
263,Moree,0,AU,1531977558,67,-29.46,149.84,62.67,8.66
264,Chuy,24,UY,1531977560,96,-33.69,-53.46,58.35,11.56
265,Fairview,1,US,1531976160,49,40.81,-74.0,75.2,7.43
266,Launceston,75,AU,1531976400,87,-41.43,147.14,48.2,14.99
267,Padang,80,ID,1531977565,100,-0.92,100.36,82.29,11.12
268,Kabanjahe,40,ID,1531974600,59,3.1,98.49,89.6,8.05
269,Torres,0,BR,1531977568,91,-29.34,-49.73,58.53,3.51
270,Urengoy,0,RU,1531977569,61,65.96,78.37,55.74,18.05
271,Malabo,12,CD,1531977570,59,1.56,30.43,67.71,3.51
272,Upernavik,68,GL,1531977572,100,72.79,-56.15,35.13,10.0
273,Fare,92,PF,1531977573,99,-16.7,-151.02,79.23,21.97
274,Port Lincoln,76,AU,1531977574,100,-34.72,135.86,52.77,19.73
275,Hasaki,75,JP,1531974600,59,35.73,140.83,91.4,11.41
276,Jinchang,0,CN,1531977577,46,38.52,102.19,81.3,4.07
277,Muravlenko,0,RU,1531977527,58,63.79,74.5,66.27,11.79
278,Goulburn,0,AU,1531977580,58,-34.75,149.72,55.38,12.24
279,Valleyview,12,CA,1531977582,60,55.07,-117.28,61.59,5.64
280,Moindou,20,NC,1531976400,60,-21.69,165.68,69.8,13.87
281,Marsabit,20,KE,1531977585,69,2.34,37.99,70.41,16.71
282,Usinsk,0,RU,1531977586,72,66.0,57.56,66.54,4.63
283,Sambava,68,MG,1531977587,100,-14.27,50.17,73.56,22.41
284,Tuatapere,12,NZ,1531977589,100,-46.13,167.69,48.36,5.19
285,Cascais,75,PT,1531976400,93,38.7,-9.42,64.4,6.93
286,Keningau,75,MY,1531974600,59,5.33,116.16,93.2,4.7
287,Pampa,1,US,1531976100,65,35.54,-100.96,82.4,10.29
288,Baghdad,0,IQ,1531972800,27,33.3,44.38,87.8,13.87
289,Majene,0,ID,1531977596,90,-3.54,118.97,84.81,12.01
290,Olhao,0,PT,1531976400,64,37.03,-7.84,68.0,6.93
291,Diofior,88,SN,1531977599,85,14.19,-16.66,78.6,5.53
292,Sungaipenuh,80,ID,1531977601,85,-2.08,101.38,74.19,0.16
293,Jiblah,12,YE,1531977602,39,13.92,44.15,80.13,2.95
294,Talcahuano,20,CL,1531972800,86,-36.72,-73.12,39.2,8.05
295,Berdigestyakh,0,RU,1531977605,39,62.1,126.7,66.9,3.74
296,Guerrero Negro,8,MX,1531977606,99,27.97,-114.04,67.53,5.64
297,Starosubkhangulovo,12,RU,1531977608,68,53.1,57.43,72.39,7.2
298,Healesville,90,AU,1531976400,44,-37.65,145.52,60.8,16.11
299,Sao Fidelis,68,BR,1531977611,94,-21.65,-41.75,60.06,2.39
300,Quatre Cocos,75,MU,1531976400,73,-20.21,57.76,69.8,16.11
301,Illela,88,NG,1531977615,96,12.25,4.3,72.03,8.77
302,Bonavista,88,CA,1531977616,82,48.65,-53.11,59.97,19.06
303,Namanga,0,KE,1531977618,62,-2.55,36.79,61.77,7.43
304,Sao Joao da Barra,0,BR,1531977619,96,-21.64,-41.05,74.19,18.95
305,Kieta,92,PG,1531977621,97,-6.22,155.63,80.4,10.56
306,Nurota,0,UZ,1531974600,14,40.56,65.69,98.6,16.11
307,Egvekinot,92,RU,1531977623,99,66.32,-179.17,47.1,3.18
308,Requena,20,ES,1531974600,83,39.49,-1.1,71.6,3.36
309,Geraldton,40,CA,1531976400,77,49.72,-86.95,62.6,5.82
310,Dingle,80,PH,1531977628,65,11.0,122.67,86.61,14.92
311,Qeshm,56,IR,1531974600,71,26.96,56.27,93.2,4.7
312,Sorland,75,NO,1531975800,93,67.67,12.69,59.0,10.29
313,Ahipara,76,NZ,1531977633,94,-35.17,173.16,56.1,9.55
314,Tadine,0,NC,1531977635,98,-21.55,167.88,70.41,14.7
315,Ekhabi,88,RU,1531977636,49,53.51,142.97,75.72,8.77
316,Lahij,88,YE,1531977640,31,13.06,44.88,93.18,2.06
317,Fiumicino,0,IT,1531976100,88,41.77,12.23,69.8,2.24
318,Richards Bay,20,ZA,1531977643,97,-28.77,32.06,50.34,3.62
319,Batemans Bay,0,AU,1531977629,64,-35.71,150.18,60.96,8.77
320,Gat,88,SN,1531977646,85,14.69,-16.54,78.6,5.53
321,Gamba,12,CN,1531977649,92,28.28,88.52,40.26,1.39
322,Kadom,56,RU,1531977651,92,54.57,42.47,69.15,8.55
323,Pangnirtung,20,CA,1531977652,88,66.15,-65.72,36.48,2.39
324,Najran,75,SA,1531972800,33,17.54,44.22,86.0,5.82
325,Saint George,20,GR,1531975800,60,39.45,22.34,73.4,5.82
326,Beira,75,ES,1531974600,88,43.2,-8.36,66.2,3.36
327,Westport,64,IE,1531977658,97,53.8,-9.52,51.78,5.3
328,Bilma,0,NE,1531977659,19,18.69,12.92,79.14,7.65
329,Flagstaff,1,US,1531976220,88,35.2,-111.65,73.4,4.52
330,Fortuna,0,ES,1531974600,88,38.18,-1.13,68.0,5.82
331,Bukama,0,CD,1531977664,44,-9.2,25.85,65.64,12.46
332,Camalu,44,MX,1531977665,96,30.85,-116.07,66.54,3.18
333,Nome,1,US,1531976100,83,30.04,-94.42,82.4,5.82
334,Chowchilla,1,US,1531976100,40,37.12,-120.26,96.8,6.93
335,Mora,92,SE,1531977669,90,61.01,14.54,66.54,2.62
336,Pokhara,0,NP,1531977672,70,28.21,83.99,78.33,2.39
337,Fukue,20,JP,1531974600,74,35.03,136.69,87.8,12.75
338,Miri,44,NG,1531977675,93,10.31,9.75,69.51,4.97
339,Bilibino,76,RU,1531977677,60,68.06,166.44,46.83,5.97
340,Rusape,32,ZW,1531977678,93,-18.53,32.12,46.74,3.74
341,Comodoro Rivadavia,90,AR,1531972800,93,-45.87,-67.48,37.4,8.05
342,Bontang,20,ID,1531977681,92,0.12,117.47,85.26,7.43
343,Kantunilkin,40,MX,1531975560,88,21.1,-87.49,80.6,5.82
344,Beringovskiy,8,RU,1531977684,92,63.05,179.32,56.1,8.99
345,Awjilah,0,LY,1531977686,59,29.14,21.3,79.32,11.12
346,Ulcinj,20,ME,1531976400,46,41.93,19.22,77.0,4.7
347,Uvalde,1,US,1531976100,45,29.21,-99.79,87.8,8.05
348,Abu Samrah,0,SY,1531977689,65,35.3,37.18,79.86,11.01
349,Cherskiy,0,RU,1531977668,53,68.75,161.3,48.18,6.98
350,Vestmannaeyjar,92,IS,1531977692,100,63.44,-20.27,49.08,8.88
351,Antofagasta,90,CL,1531972800,76,-23.65,-70.4,55.4,13.87
352,Poum,0,MK,1531977695,76,41.28,20.71,62.04,2.39
353,Senneterre,1,CA,1531976400,71,48.39,-77.24,57.2,8.05
354,Pisco,40,PE,1531972800,82,-13.71,-76.2,60.8,3.36
355,Szczytno,0,PL,1531977699,93,53.57,20.99,73.56,6.64
356,General Roca,90,AR,1531972800,93,-39.03,-67.58,39.2,2.24
357,Paranavai,0,BR,1531977702,61,-23.07,-52.47,67.08,9.1
358,Husavik,24,CA,1531977704,72,50.56,-96.99,71.31,9.44
359,North Bend,90,US,1531976160,93,43.41,-124.22,57.2,18.34
360,Vryburg,0,ZA,1531977706,68,-26.96,24.73,30.36,2.84
361,Katsuura,20,JP,1531972800,56,33.93,134.5,93.2,5.82
362,Liku,20,ID,1531977711,74,-0.73,119.89,86.52,2.62
363,Saldanha,12,PT,1531977712,88,41.42,-6.55,55.74,2.62
364,Haines Junction,36,CA,1531977714,64,60.75,-137.51,51.42,1.95
365,Touros,20,BR,1531977715,87,-5.2,-35.46,73.38,14.92
366,Payson,1,US,1531976160,38,40.04,-111.73,80.6,9.17
367,Simao,8,CN,1531977719,50,22.76,100.79,88.86,3.06
368,Ayan,0,TR,1531977720,74,40.67,33.6,64.74,2.62
369,Gualeguaychu,92,AR,1531977721,98,-33.01,-58.51,60.87,5.08
370,Leshukonskoye,0,RU,1531977723,65,64.9,45.76,70.14,3.74
371,Dikson,88,RU,1531977724,100,73.51,80.55,37.56,29.46
372,Pevek,40,RU,1531976400,66,69.7,170.27,53.6,6.71
373,Deutschlandsberg,20,AT,1531976400,87,46.81,15.21,62.6,1.12
374,Sorong,32,ID,1531977728,100,-0.86,131.25,83.19,1.05
375,La Joya,8,MX,1531977730,82,19.61,-97.03,56.37,2.06
376,Mahon,75,IE,1531974600,81,51.89,-8.4,53.6,9.17
377,Kaihua,0,CN,1531977733,70,29.14,118.41,88.68,3.4
378,Cabo San Lucas,40,MX,1531975200,78,22.89,-109.91,80.6,4.7
379,Mitchell,90,US,1531975980,94,43.71,-98.03,69.8,5.82
380,Serdobsk,36,RU,1531977737,91,52.46,44.21,72.48,9.22
381,Port-Gentil,75,GA,1531976400,83,-0.72,8.78,75.2,4.7
382,Ndola,68,ZM,1531977740,79,-12.97,28.64,51.78,13.58
383,Lingao,88,CN,1531977741,100,19.91,109.69,79.5,6.64
384,Ratnagiri,92,IN,1531977743,100,16.98,73.3,79.77,20.18
385,Maniitsoq,68,GL,1531977744,79,65.42,-52.9,47.73,6.76
386,Abay,0,KZ,1531974600,41,49.63,72.87,78.8,4.47
387,Bermejo,100,AR,1531977748,89,-22.73,-64.34,64.56,3.06
388,Chifeng,24,CN,1531977749,76,42.27,118.96,83.64,11.01
389,Acapulco,75,MX,1531975740,79,16.86,-99.88,86.0,3.36
390,Boguchany,92,RU,1531977497,72,58.38,97.46,65.37,3.51
391,Lashio,0,MM,1531977755,62,22.93,97.75,91.65,2.62
392,Maputo,40,MZ,1531972800,87,-25.97,32.57,53.6,5.82
393,Kolosovka,20,RU,1531977758,51,56.47,73.61,83.73,4.63
394,Quelimane,75,MZ,1531976400,93,-17.88,36.89,64.4,3.36
395,Codrington,0,AU,1531977760,68,-28.95,153.24,64.56,3.96
396,Oxford,1,US,1531976160,88,33.61,-85.83,77.0,4.18
397,Nelson Bay,0,AU,1531976400,30,-32.72,152.14,71.6,5.82
398,Cabra,0,ES,1531974600,72,37.47,-4.43,64.4,2.24
399,Alta Floresta,0,BR,1531977766,55,-9.87,-56.08,76.8,3.62
400,Viedma,92,AR,1531977769,97,-40.81,-62.99,44.94,19.73
401,Ulaangom,68,MN,1531977622,93,49.98,92.07,54.21,3.74
402,Maceio,40,BR,1531976400,94,-9.67,-35.74,69.8,2.24
403,Birecik,0,TR,1531975800,54,37.03,37.98,78.8,10.29
404,Calderitas,40,MX,1531976700,83,18.55,-88.26,82.4,11.41
405,Beloha,0,MG,1531977778,56,-25.17,45.06,66.54,15.03
406,Sao Jose da Coroa Grande,68,BR,1531977779,96,-8.9,-35.15,72.66,10.22
407,Zunyi,0,CN,1531977781,42,27.73,106.92,93.72,10.22
408,Baie-Comeau,1,CA,1531976400,76,49.22,-68.15,57.2,5.82
409,Porbandar,75,IN,1531974600,88,21.64,69.61,80.6,9.17
410,Nuevo Progreso,1,US,1531976100,78,26.05,-97.95,82.4,12.75
411,Marzuq,56,YE,1531977787,27,14.4,46.47,86.34,3.62
412,Plettenberg Bay,0,ZA,1531977788,83,-34.05,23.37,66.99,13.35
413,Adrar,0,DZ,1531976400,11,27.87,-0.29,86.0,16.11
414,Thai Binh,92,VN,1531977791,100,20.45,106.33,78.87,5.97
415,Amazar,12,RU,1531977792,55,53.86,120.88,72.03,4.52
416,Paramonga,88,PE,1531977793,100,-10.68,-77.82,60.33,14.81
417,Onguday,92,RU,1531977795,91,50.75,86.14,51.87,2.28
418,Shingu,20,JP,1531972800,74,33.72,135.99,86.0,5.82
419,Edd,92,ER,1531977798,29,13.93,41.69,92.01,3.4
420,Guanare,92,VE,1531977799,95,9.04,-69.74,72.57,8.99
421,Manjeshwar,75,IN,1531976400,83,12.72,74.89,82.4,8.05
422,Qena,0,EG,1531972800,32,26.16,32.72,82.4,4.18
423,Vigrestad,0,NO,1531975800,87,58.57,5.7,57.2,8.05
424,Salinas,90,US,1531976100,87,36.67,-121.66,59.0,10.29
425,Kuzhener,92,RU,1531977806,97,56.81,48.92,65.82,8.21
426,Delbruck,0,DE,1531975800,76,51.77,8.57,57.2,2.24
427,Hamilton,20,CA,1531976400,72,43.26,-79.87,66.2,6.93
428,Sabha,0,LY,1531977810,31,27.03,14.43,79.23,9.78
429,Cariati,0,IT,1531977813,91,39.5,16.95,75.18,6.98
430,Dhidhdhoo,64,MV,1531977814,100,6.88,73.1,81.57,18.72
431,Saravena,0,CO,1531977836,92,6.96,-71.88,64.29,1.72
432,Altay,0,CN,1531977700,69,47.83,88.13,55.11,3.85
433,Kulhudhuffushi,64,MV,1531977839,100,6.62,73.07,81.57,18.72
434,Ha Giang,92,VN,1531977840,87,22.83,104.99,77.07,2.17
435,Surskoye,0,RU,1531977842,82,54.48,46.71,75.54,3.96
436,Teahupoo,20,PF,1531976400,78,-17.83,-149.27,77.0,2.24
437,Duku,44,NG,1531977844,95,11.24,4.91,71.94,5.64
438,Bloemfontein,0,ZA,1531972800,86,-29.12,26.22,26.6,1.12
439,Lufilufi,0,WS,1531977847,100,-13.87,-171.6,81.75,10.45
440,Flinders,0,AU,1531972800,18,-34.58,150.85,68.0,17.22
441,Talpa,40,MX,1531975260,48,28.83,-111.63,87.8,4.7
442,Musoma,20,TZ,1531972800,59,-1.5,33.81,66.2,6.93
443,Vao,80,EE,1531977853,52,59.1,26.19,76.17,7.65
444,Necochea,92,AR,1531977855,97,-38.55,-58.74,50.25,24.09
445,Kermanshah,0,IR,1531976400,13,34.32,47.07,86.0,4.7
446,Sooke,20,CA,1531976400,55,48.37,-123.73,66.2,12.75
447,Orcopampa,24,PE,1531977861,80,-15.27,-72.34,21.63,3.62
448,Hobyo,12,SO,1531977764,67,5.35,48.53,78.42,20.74
449,Ocampo,92,PH,1531977864,79,13.56,123.37,86.16,20.4
450,Saint Anthony,1,US,1531976160,35,43.97,-111.68,75.2,10.29
451,Santa Rosa,92,AR,1531977868,96,-36.62,-64.29,45.84,13.02
452,Diego de Almagro,92,CL,1531977649,97,-26.39,-70.05,45.39,2.95
453,Praia da Vitoria,40,PT,1531976400,94,38.73,-27.07,68.0,18.95
454,Reconquista,80,AR,1531977872,100,-29.14,-59.64,61.32,10.0
455,Matagami,92,NG,1531977873,99,9.67,8.4,66.72,3.4
456,Saint-Leu,75,RE,1531976400,77,-21.15,55.28,69.8,13.87
457,Carroll,0,AU,1531976400,12,-30.99,150.44,71.6,14.99
458,Westerland,90,NL,1531976100,100,52.89,4.93,62.6,3.36
459,Quimper,0,FR,1531976400,82,48.0,-4.1,59.0,5.82
460,Dunmore East,0,IE,1531977881,95,52.15,-6.99,56.1,8.88
461,Bucerias,40,MX,1531975200,94,20.76,-105.33,82.4,4.97
462,Laizhou,0,CN,1531977884,63,37.18,119.93,93.09,12.01
463,Bundaberg,0,AU,1531977723,95,-24.87,152.35,67.35,4.63
464,Nishihara,1,JP,1531976160,53,35.74,139.53,95.0,12.75
465,Laguna,0,MX,1531977888,72,27.52,-110.01,77.61,2.39
466,Kahramanmaras,0,TR,1531975800,61,37.58,36.93,78.8,20.8
467,Mityana,12,UG,1531977891,69,0.4,32.05,66.45,8.66
468,Bedford,44,GB,1531976160,76,52.14,-0.47,60.8,3.36
469,Bandipur,76,IN,1531977894,68,11.67,76.63,76.89,4.74
470,Hearst,8,CA,1531977895,62,49.69,-83.67,64.74,7.99
471,Raudeberg,40,NO,1531975800,93,61.99,5.14,57.2,5.82
472,Hailey,5,US,1531975620,23,43.52,-114.32,66.2,9.17
473,Businga,92,CD,1531977900,95,3.34,20.89,72.03,2.95
474,Waipawa,36,NZ,1531977735,71,-39.94,176.59,48.54,3.4
475,Eyl,0,SO,1531977674,67,7.98,49.82,81.84,26.89
476,Seymchan,88,RU,1531977905,82,62.93,152.39,44.4,8.88
477,Politika,0,GR,1531975800,44,38.6,23.55,84.2,3.36
478,Urambo,0,TZ,1531977907,49,-5.07,32.07,63.03,5.64
479,Parakai,92,NZ,1531976400,87,-36.66,174.44,57.2,9.17
480,Nioki,0,CD,1531977910,86,-2.72,17.69,70.23,2.17
481,West Odessa,1,US,1531976100,22,31.84,-102.48,89.6,14.99
482,Felipe Carrillo Puerto,24,MX,1531977792,77,19.58,-88.05,79.59,4.18
483,Borogontsy,0,RU,1531977914,46,62.67,131.17,67.44,3.96
484,Margate,75,AU,1531976400,57,-43.03,147.26,51.8,12.75
485,Kamaishi,75,JP,1531972800,59,39.28,141.86,89.6,2.24
486,Hambantota,48,LK,1531977918,94,6.12,81.12,82.02,19.73
487,Ampanihy,0,MG,1531977919,69,-24.69,44.75,62.13,15.26
488,Erzin,0,TR,1531975800,66,36.95,36.2,84.2,9.17
489,La Primavera,90,AR,1531972800,93,-32.92,-68.67,41.0,4.7
490,Mareeba,40,AU,1531976400,64,-16.99,145.42,75.2,6.93
491,Taltal,92,CL,1531977925,90,-25.41,-70.49,46.83,3.96
492,San Cristobal,75,EC,1531976400,87,-0.39,-78.55,51.8,9.17
493,Zawiercie,90,PL,1531976400,93,50.48,19.43,64.4,9.17
494,Kharp,36,RU,1531977929,64,66.82,65.8,58.17,2.17
495,Labuhan,44,ID,1531977931,69,-2.54,115.51,85.89,3.62
496,Fomboni,88,KM,1531977932,100,-12.28,43.74,74.46,19.73
497,Trinidad,92,UY,1531977933,97,-33.52,-56.9,63.39,6.53
498,Mochudi,0,BW,1531977935,78,-24.38,26.15,36.39,2.95
499,Jining,48,CN,1531977937,59,35.41,116.58,95.97,11.45
500,Buraydah,0,SA,1531976400,28,26.33,43.97,93.2,8.05
501,Ambilobe,0,MG,1531977940,53,-13.19,49.05,76.53,14.25
502,Hyeres,0,FR,1531976400,73,43.12,6.14,69.8,3.36
503,Puerto del Rosario,0,ES,1531974600,83,28.5,-13.86,69.8,11.41
504,El Dorado,92,VE,1531977945,99,6.71,-61.64,72.03,1.95
505,Alindao,76,CF,1531977948,96,5.04,21.21,73.02,4.41
506,Chambery,0,FR,1531976400,93,45.57,5.93,66.2,1.12
507,Snezhnogorsk,0,RU,1531976400,41,69.19,33.23,77.0,4.47
508,Umea,0,SE,1531975800,64,63.83,20.26,73.4,6.87
509,Ndjole,92,GA,1531977955,96,-0.18,10.76,71.04,3.62
510,Gazanjyk,24,TM,1531977956,25,39.24,55.52,100.02,4.41
511,Kapuskasing,40,CA,1531976400,72,49.42,-82.43,62.6,9.17
512,Baruun-Urt,92,MN,1531977959,83,46.68,113.28,75.36,4.97
513,Ibra,80,OM,1531977961,38,22.69,58.55,94.53,3.18
514,Myitkyina,8,MM,1531977962,60,25.38,97.4,95.88,2.95
515,Saint-Augustin,0,FR,1531976400,93,44.83,-0.61,64.4,3.36
516,Namatanai,76,PG,1531977797,100,-3.66,152.44,76.44,1.95
517,Sand,0,NO,1531977966,79,60.4,11.54,66.36,2.73
518,Chara,20,GR,1531975800,60,39.42,22.43,73.4,5.82
519,Djambala,12,CG,1531977969,92,-2.55,14.76,66.09,3.18
520,Uarini,100,BR,1531977970,98,-2.98,-65.16,72.48,3.85
521,Yaan,76,NG,1531977972,96,7.38,8.57,70.95,7.54
522,Tutoia,0,BR,1531977973,88,-2.76,-42.27,77.34,9.89
523,Bathsheba,40,BB,1531976400,83,13.22,-59.52,80.6,20.8
524,Miramar,0,CR,1531976400,88,10.09,-84.73,68.0,3.36
525,Tongliao,0,CN,1531977977,73,43.61,122.27,94.08,15.48
526,Fort Nelson,75,CA,1531976400,87,58.81,-122.69,57.2,6.93
527,Avera,1,US,1531976100,94,33.19,-82.53,80.6,2.62
528,Sioux Lookout,75,CA,1531976400,77,50.1,-91.92,68.0,3.36
529,Klyavlino,48,RU,1531977983,83,54.26,52.03,75.81,4.18
530,Iberia,0,PE,1531977984,91,-11.41,-69.49,72.57,2.17
531,Dudinka,0,RU,1531977688,41,69.41,86.18,52.32,18.72
532,Udachnyy,12,RU,1531977987,47,66.42,112.4,70.41,8.43
533,Grand Gaube,75,MU,1531976400,73,-20.01,57.66,69.8,16.11
534,Makushino,92,RU,1531977990,60,55.21,67.25,78.87,6.2
535,Khudumelapye,0,BW,1531977991,71,-23.91,24.95,37.38,6.64
536,Moron,92,VE,1531977993,98,10.49,-68.2,70.14,2.39
537,Tricase,0,IT,1531972500,57,39.93,18.36,77.0,10.29
538,Coos Bay,90,US,1531976160,93,43.37,-124.22,57.2,18.34
539,Gigmoto,92,PH,1531977998,90,13.78,124.39,86.16,20.74
540,Vila Velha,40,BR,1531976400,83,-3.71,-38.6,78.8,9.17
541,Kraskino,20,RU,1531978001,75,42.71,130.78,76.89,5.41
542,Kadiri,88,IN,1531978002,52,14.11,78.16,87.24,20.85
543,Lethem,76,GY,1531978005,97,3.38,-59.8,72.03,2.51
544,Bulgan,24,MN,1531978006,75,48.81,103.53,74.46,4.63
545,Kidal,8,ML,1531978007,59,18.44,1.41,80.4,7.76
546,Ulladulla,0,AU,1531972800,18,-35.36,150.48,68.0,17.22
547,Rawson,92,AR,1531978011,95,-43.3,-65.11,41.25,8.99
548,Red Bluff,1,US,1531976100,46,40.18,-122.24,91.4,5.82
549,Visnes,20,NO,1531975800,93,59.36,5.22,57.2,5.82
550,Berlevag,0,NO,1531975800,37,70.86,29.09,82.4,12.75
551,Nouakchott,12,MR,1531978017,100,18.08,-15.98,75.72,9.33
552,Kosh-Agach,92,RU,1531978018,97,49.99,88.66,45.48,5.75
553,Staicele,0,LV,1531975800,77,57.83,24.75,68.0,4.7
554,Fort Thomas,20,US,1531976100,93,39.08,-84.45,73.4,3.06
555,Quezon,92,PH,1531978022,98,16.49,121.26,71.31,2.62
556,Matsumoto,20,JP,1531972800,41,36.24,137.97,91.4,5.82
